[
	{
		"districtId": "3ecefe62-24d3-4413-9bce-0c1624ececcc",
		"warehouseId": "baedfbed-e5a5-4d2a-a3ad-f163ab2bb5f7",
		"name": "Eagleville District",
		"address": "",
		"city": "Eagleville",
		"state": "TN",
		"postalCode": "37060",
		"salesTax": 0.0975,
		"yearToDateBalance": 0.00,
		"nextOrderId": "",
		"latitude": 35.7492,
		"longitude": -86.6327
	},
	{
		"districtId": "433f50c9-a655-4ed8-ba3a-87cc6ca64270",
		"warehouseId": "baedfbed-e5a5-4d2a-a3ad-f163ab2bb5f7",
		"name": "Rockvale District",
		"address": "",
		"city": "Rockvale",
		"state": "TN",
		"postalCode": "37153",
		"salesTax": 0.0975,
		"yearToDateBalance": 0.00,
		"nextOrderId": "",
		"latitude": 35.745,
		"longitude": -86.5352
	},
	{
		"districtId": "b207febd-6824-4087-9431-8701fab0e201",
		"warehouseId": "baedfbed-e5a5-4d2a-a3ad-f163ab2bb5f7",
		"name": "Murfreesboro District",
		"address": "",
		"city": "Murfreesboro",
		"state": "TN",
		"postalCode": "37127",
		"salesTax": 0.0975,
		"yearToDateBalance": 0.00,
		"nextOrderId": "",
		"latitude": 35.8596,
		"longitude": -86.421
	},
	{
		"districtId": "97b64aee-79ec-4ad1-ab18-4d260ad2e420",
		"warehouseId": "baedfbed-e5a5-4d2a-a3ad-f163ab2bb5f7",
		"name": "College Grove District",
		"address": "",
		"city": "College Grove",
		"state": "TN",
		"postalCode": "37046",
		"salesTax": 0.0975,
		"yearToDateBalance": 0.00,
		"nextOrderId": "",
		"latitude": 35.7832,
		"longitude": -86.7495
	},
	{
		"districtId": "94c10e4b-be79-4b7f-b076-f52ca4629cf8",
		"warehouseId": "baedfbed-e5a5-4d2a-a3ad-f163ab2bb5f7",
		"name": "Thompsons Station District",
		"address": "",
		"city": "Thompsons Station",
		"state": "TN",
		"postalCode": "37179",
		"salesTax": 0.0975,
		"yearToDateBalance": 0.00,
		"nextOrderId": "",
		"latitude": 35.809,
		"longitude": -86.8913
	},
	{
		"districtId": "009ba61a-2c66-4250-932c-9895c45b1e2f",
		"warehouseId": "baedfbed-e5a5-4d2a-a3ad-f163ab2bb5f7",
		"name": "Arrington District",
		"address": "",
		"city": "Arrington Tree",
		"state": "TN",
		"postalCode": "37014",
		"salesTax": 0.0975,
		"yearToDateBalance": 0.00,
		"nextOrderId": "",
		"latitude": 35.8566,
		"longitude": -86.6633
	},
	{
		"districtId": "73af6316-a70d-45e7-a9f0-32f30f9f7e97",
		"warehouseId": "baedfbed-e5a5-4d2a-a3ad-f163ab2bb5f7",
		"name": "Franklin District",
		"address": "8 Manitowish Circle",
		"city": "Franklin",
		"state": "TN",
		"postalCode": "37064",
		"salesTax": 0.089,
		"yearToDateBalance": 0.00,
		"nextOrderId": "",
		"latitude": 35.9796,
		"longitude": -86.9106
	},
	{
		"districtId": "0c422158-3981-476f-887c-f0760e17735b",
		"warehouseId": "baedfbed-e5a5-4d2a-a3ad-f163ab2bb5f7",
		"name": "Nolensville District",
		"address": "",
		"city": "Nolensville",
		"state": "TN",
		"postalCode": "37135",
		"salesTax": 0.0975,
		"yearToDateBalance": 0.00,
		"nextOrderId": "",
		"latitude": 35.9307,
		"longitude": -86.6829
	},
	{
		"districtId": "ac96fa1e-985f-4c05-bb8c-ecf89b434a81",
		"warehouseId": "baedfbed-e5a5-4d2a-a3ad-f163ab2bb5f7",
		"name": "Lascassas District",
		"address": "6593 Steensland Center",
		"city": "Lascassas",
		"state": "TN",
		"postalCode": "37085",
		"salesTax": 0.0975,
		"yearToDateBalance": 0.00,
		"nextOrderId": "",
		"latitude": 35.9495,
		"longitude":  -86.3112
	},
	{
		"districtId": "35ee9642-0e14-4acd-9b3e-43b94de592f1",
		"warehouseId": "baedfbed-e5a5-4d2a-a3ad-f163ab2bb5f7",
		"name": "Brentwood District",
		"address": "361 Butterfield Pass",
		"city": "Brentwood",
		"state": "TN",
		"postalCode": "37024",
		"salesTax": 0.0975,
		"yearToDateBalance": 0.00,
		"nextOrderId": "",
		"latitude": 36.0063,
		"longitude": -86.7909
	}
]
