[
	{
		"districtId": "d86010cc-ee12-4e03-8cda-ec8b9be8f1e1",
		"warehouseId": "c7187f89-a11d-44f8-9f00-2385cd1a22d6",
		"name": "Freeman District",
		"address": "2581 Commercial Avenue",
		"city": "Freeman",
		"state": "MO",
		"postalCode": "64746",
		"salesTax": 0.065,
		"yearToDateBalance": 0.00,
		"nextOrderId": "",
		"latitude": 38.6245,
		"longitude": -94.4956
	},
	{
		"districtId": "1ddbb1d7-6f46-458d-b66c-33609852f028",
		"warehouseId": "c7187f89-a11d-44f8-9f00-2385cd1a22d6",
		"name": "Louisburg District",
		"address": "27 Arizona Road",
		"city": "Louisburg",
		"state": "KS",
		"postalCode": "66053",
		"salesTax": 0.095,
		"yearToDateBalance": 0.00,
		"nextOrderId": "",
		"latitude": 38.6073,
		"longitude": -94.6829
	},
	{
		"districtId": "fe023fc7-1531-4970-a136-4fe1cb0af410",
		"warehouseId": "c7187f89-a11d-44f8-9f00-2385cd1a22d6",
		"name": "Harrisonville District",
		"address": "412 Farwell Avenue",
		"city": "Harrisonville",
		"state": "MO",
		"postalCode": "64701",
		"salesTax": 0.0725,
		"yearToDateBalance": 0.00,
		"nextOrderId": "",
		"latitude": 38.6419,
		"longitude": -94.3285
	},
	{
		"districtId": "3c038326-2b7f-421b-a004-92a81ed01ecc",
		"warehouseId": "c7187f89-a11d-44f8-9f00-2385cd1a22d6",
		"name": "Cleveland District",
		"address": "58 Talmadge Park",
		"city": "Cleveland",
		"state": "MO",
		"postalCode": "64734",
		"salesTax": 0.070,
		"yearToDateBalance": 0.00,
		"nextOrderId": "",
		"latitude": 38.6898,
		"longitude": -94.5695
	},
	{
		"districtId": "627430e9-f48c-492f-b82f-b052d626dacd",
		"warehouseId": "c7187f89-a11d-44f8-9f00-2385cd1a22d6",
		"name": "Hillsdale District",
		"address": "555 Spohn Street",
		"city": "Hillsdale",
		"state": "KS",
		"postalCode": "66036",
		"salesTax": 0.080,
		"yearToDateBalance": 0.00,
		"nextOrderId": "",
		"latitude": 38.6581,
		"longitude":  -94.8521
	},
	{
		"districtId": "abfa01f5-49df-4533-9eb6-f123d1f91213",
		"warehouseId": "c7187f89-a11d-44f8-9f00-2385cd1a22d6",
		"name": "East Lynne District",
		"address": "9554 Harper Plaza",
		"city": "East Lynne Tree",
		"state": "MO",
		"postalCode": "64743",
		"salesTax": 0.0736,
		"yearToDateBalance": 0.00,
		"nextOrderId": "",
		"latitude": 38.6682,
		"longitude": -94.2333
	},
	{
		"districtId": "eef1a829-60eb-47a6-bcd8-01eeda74ddb9",
		"warehouseId": "c7187f89-a11d-44f8-9f00-2385cd1a22d6",
		"name": "Peculiar District",
		"address": "499 Trailsway Point",
		"city": "Peculiar",
		"state": "MO",
		"postalCode": "64078",
		"salesTax": 0.08850,
		"yearToDateBalance": 0.00,
		"nextOrderId": "",
		"latitude": 38.7165,
		"longitude": -94.4405
	},
	{
		"districtId": "694cae46-5674-47b8-9fa4-bb0a870df6a2",
		"warehouseId": "c7187f89-a11d-44f8-9f00-2385cd1a22d6",
		"name": "Bucyrus District",
		"address": "2 Straubel Terrace",
		"city": "Bucyrus",
		"state": "KS",
		"postalCode": "66013",
		"salesTax": 0.0725,
		"yearToDateBalance": 0.00,
		"nextOrderId": "",
		"latitude":  38.6761,
		"longitude": -94.6851
	},
	{
		"districtId": "caf88de4-ce71-4571-8586-a22e6d48d27d",
		"warehouseId": "c7187f89-a11d-44f8-9f00-2385cd1a22d6",
		"name": "Spring Hill District",
		"address": "5 Warner Hill",
		"city": "Spring Hill",
		"state": "KS",
		"postalCode": "66083",
		"salesTax": 0.09475,
		"yearToDateBalance": 0.00,
		"nextOrderId": "",
		"latitude": 38.7631,
		"longitude":  -94.8246
	},
	{
		"districtId": "80f16b7f-4af3-41f6-a5d6-691179a20b33",
		"warehouseId": "c7187f89-a11d-44f8-9f00-2385cd1a22d6",
		"name": "Strasburg District",
		"address": "2626 Red Cloud Trail",
		"city": "Strasburg Park",
		"state": "MO",
		"postalCode": "64090",
		"salesTax": 0.0736,
		"yearToDateBalance": 0.00,
		"nextOrderId": "",
		"latitude": 38.7658,
		"longitude": -94.1609
	}
]
