[
	{
		"districtId": "497f2751-9740-40e2-b59c-b873c0b7a44b",
		"warehouseId": "073ab6ef-27c7-4176-ae53-5cf27ac5fd0e",
		"name": "Rockwood District",
		"address": "711 Ramsey Plaza",
		"city": "Rockwood",
		"state": "MI",
		"postalCode": "48173",
		"salesTax": 0.060,
		"yearToDateBalance": 0.00,
		"nextOrderId": "",
		"latitude": 42.1122,
		"longitude": -83.2726
	},
	{
		"districtId": "20b1abfb-bc14-4ae9-bb64-25e066241527",
		"warehouseId": "073ab6ef-27c7-4176-ae53-5cf27ac5fd0e",
		"name": "Flat Rock District",
		"address": "763 Kinsman Crossing",
		"city": "Flat Rock",
		"state": "MI",
		"postalCode": "48134",
		"salesTax": 0.060,
		"yearToDateBalance": 0.00,
		"nextOrderId": "",
		"latitude": 42.1055,
		"longitude": -83.2795
	},
	{
		"districtId": "408b2761-b166-4270-b4bd-a56c28128133",
		"warehouseId": "073ab6ef-27c7-4176-ae53-5cf27ac5fd0e",
		"name": "New Boston District",
		"address": "67793 Anzinger Plaza",
		"city": "New Boston",
		"state": "MI",
		"postalCode": "48164",
		"salesTax": 0.060,
		"yearToDateBalance": 0.00,
		"nextOrderId": "",
		"latitude": 42.1449,
		"longitude": -83.3589
	},
	{
		"districtId": "da875ccf-5307-44a1-a5ae-a5a0ad5fd44f",
		"warehouseId": "073ab6ef-27c7-4176-ae53-5cf27ac5fd0e",
		"name": "Trenton District",
		"address": "4 Village Way",
		"city": "Trenton",
		"state": "MI",
		"postalCode": "48183",
		"salesTax": 0.060,
		"yearToDateBalance": 0.00,
		"nextOrderId": "",
		"latitude": 42.1382,
		"longitude": -83.2179
	},
	{
		"districtId": "98e594ed-8f2e-4a94-bec2-2cb78293a50d",
		"warehouseId": "073ab6ef-27c7-4176-ae53-5cf27ac5fd0e",
		"name": "Grosse Ile District",
		"address": "3676 Bobwhite Park",
		"city": "Grosse Ile",
		"state": "MI",
		"postalCode": "48138",
		"salesTax": 0.060,
		"yearToDateBalance": 0.00,
		"nextOrderId": "",
		"latitude": 42.1352,
		"longitude":  -83.1561
	},
	{
		"districtId": "83a77d60-d19d-44b7-8971-c176b8a3dd4f",
		"warehouseId": "073ab6ef-27c7-4176-ae53-5cf27ac5fd0e",
		"name": "Belleville District",
		"address": "52 Badeau Circle",
		"city": "Belleville Tree",
		"state": "MI",
		"postalCode": "48112",
		"salesTax": 0.060,
		"yearToDateBalance": 0.00,
		"nextOrderId": "",
		"latitude": 42.2399,
		"longitude": -83.1508
	},
	{
		"districtId": "93b7c250-400f-458e-8d19-317f27bae3f3",
		"warehouseId": "073ab6ef-27c7-4176-ae53-5cf27ac5fd0e",
		"name": "Wyandotte District",
		"address": "1 Waxwing Road",
		"city": "Wyandotte",
		"state": "MI",
		"postalCode": "48192",
		"salesTax": 0.060,
		"yearToDateBalance": 0.00,
		"nextOrderId": "",
		"latitude": 42.195,
		"longitude": -83.2066
	},
	{
		"districtId": "0c1ba02c-f05b-4cd7-8720-449e5a65daac",
		"warehouseId": "073ab6ef-27c7-4176-ae53-5cf27ac5fd0e",
		"name": "Southgate District",
		"address": "39139 Shasta Pass",
		"city": "Southgate",
		"state": "MI",
		"postalCode": "48195",
		"salesTax": 0.060,
		"yearToDateBalance": 0.00,
		"nextOrderId": "",
		"latitude": 42.2044,
		"longitude": -83.1999
	},
	{
		"districtId": "e6e560cf-930f-4585-9a2b-2f2531ff8826",
		"warehouseId": "073ab6ef-27c7-4176-ae53-5cf27ac5fd0e",
		"name": "Romulus District",
		"address": "44820 Del Sol Parkway",
		"city": "Romulus",
		"state": "MI",
		"postalCode": "48174",
		"salesTax": 0.060,
		"yearToDateBalance": 0.00,
		"nextOrderId": "",
		"latitude": 42.2203,
		"longitude":  -83.3583
	},
	{
		"districtId": "6694c3d9-6c4d-4054-908b-c0a6acee5b81",
		"warehouseId": "073ab6ef-27c7-4176-ae53-5cf27ac5fd0e",
		"name": "Lincoln Park District",
		"address": "31793 Northridge Hill",
		"city": "Lincoln Park",
		"state": "MI",
		"postalCode": "48146",
		"salesTax": 0.065,
		"yearToDateBalance": 0.00,
		"nextOrderId": "",
		"latitude": 42.2422,
		"longitude": -83.1807
	}
]
