[
	{
		"districtId": "71f12ae6-8db9-4d25-aad9-ceb4a1cdf246",
		"warehouseId": "cd7a3e29-0d50-4dee-8ca3-fd1bb43c2f6f",
		"name": "Alvin District",
		"address": "82831 Parkside Lane",
		"city": "Alvin",
		"state": "TX",
		"postalCode": "77512",
		"salesTax": 0.0825,
		"yearToDateBalance": 0.00,
		"nextOrderId": "",
		"latitude": 29.3629,
		"longitude": -95.276
	},
	{
		"districtId": "2460ecf0-d95d-46b2-92bb-226c06573683",
		"warehouseId": "cd7a3e29-0d50-4dee-8ca3-fd1bb43c2f6f",
		"name": "Thompsons District",
		"address": "67 Saint Paul Terrace",
		"city": "Thompsons",
		"state": "TX",
		"postalCode": "77481",
		"salesTax": 0.0725,
		"yearToDateBalance": 0.00,
		"nextOrderId": "",
		"latitude": 29.4683,
		"longitude": -95.5776
	},
	{
		"districtId": "54d9ce74-a95f-4824-a6eb-f64fba07b7d6",
		"warehouseId": "cd7a3e29-0d50-4dee-8ca3-fd1bb43c2f6f",
		"name": "Manvel District",
		"address": "49768 Kim Lane",
		"city": "Manvel",
		"state": "TX",
		"postalCode": "77578",
		"salesTax": 0.050,
		"yearToDateBalance": 0.00,
		"nextOrderId": "",
		"latitude": 29.4694,
		"longitude": -95.3503
	},
	{
		"districtId": "4e5ed9ad-3d9e-4887-b56b-75e6cedfaace",
		"warehouseId": "cd7a3e29-0d50-4dee-8ca3-fd1bb43c2f6f",
		"name": "League City District",
		"address": "5 Buena Vista Drive",
		"city": "League City",
		"state": "TX",
		"postalCode": "77573",
		"salesTax": 0.0825,
		"yearToDateBalance": 0.00,
		"nextOrderId": "",
		"latitude": 29.5116,
		"longitude": -95.0582
	},
	{
		"districtId": "635ed887-706d-4cf2-9d5f-9aab87037e83",
		"warehouseId": "cd7a3e29-0d50-4dee-8ca3-fd1bb43c2f6f",
		"name": "Friendswood District",
		"address": "5315 Ludington Place",
		"city": "Friendswood",
		"state": "TX",
		"postalCode": "77549",
		"salesTax": 0.0825,
		"yearToDateBalance": 0.00,
		"nextOrderId": "",
		"latitude": 29.3305,
		"longitude": -94.8002
	},
	{
		"districtId": "4186e3cb-d384-43fc-9df8-02f0d0e2a27c",
		"warehouseId": "cd7a3e29-0d50-4dee-8ca3-fd1bb43c2f6f",
		"name": "Missouri City District",
		"address": "61176 Loftsgordon Park",
		"city": "Missouri City",
		"state": "TX",
		"postalCode": "77459",
		"salesTax": 0.0825,
		"yearToDateBalance": 0.00,
		"nextOrderId": "",
		"latitude": 29.5962,
		"longitude": -95.5115
	},
	{
		"districtId": "6d70e1a0-8d03-4106-a12c-df3a550c5bf8",
		"warehouseId": "cd7a3e29-0d50-4dee-8ca3-fd1bb43c2f6f",
		"name": "Fresno District",
		"address": "1 Lukken Place",
		"city": "Fresno",
		"state": "TX",
		"postalCode": "77545",
		"salesTax": 0.0825,
		"yearToDateBalance": 0.00,
		"nextOrderId": "",
		"latitude": 29.5293,
		"longitude": -95.4626
	},
	{
		"districtId": "d80ae9c1-5283-4ec3-b998-515b68d30f04",
		"warehouseId": "cd7a3e29-0d50-4dee-8ca3-fd1bb43c2f6f",
		"name": "Webster District",
		"address": "6 Dawn Road",
		"city": "Webster",
		"state": "TX",
		"postalCode": "77598",
		"salesTax": 0.0825,
		"yearToDateBalance": 0.00,
		"nextOrderId": "",
		"latitude": 29.5564,
		"longitude": -95.144
	},
	{
		"districtId": "5ddcf740-09c0-45b8-9882-f66969ef9c57",
		"warehouseId": "cd7a3e29-0d50-4dee-8ca3-fd1bb43c2f6f",
		"name": "Pearland District",
		"address": "6555 Lukken Point",
		"city": "Pearland",
		"state": "TX",
		"postalCode": "77584",
		"salesTax": 0.0825,
		"yearToDateBalance": 0.00,
		"nextOrderId": "",
		"latitude": 29.5127,
		"longitude": -95.2542
	},
	{
		"districtId": "eb4bd16a-4f6b-4f69-bd91-28f3dce4cd9d",
		"warehouseId": "cd7a3e29-0d50-4dee-8ca3-fd1bb43c2f6f",
		"name": "Sugar Land District",
		"address": "52 Novick Street",
		"city": "Sugar Land",
		"state": "TX",
		"postalCode": "77479",
		"salesTax": 0.0825,
		"yearToDateBalance": 0.00,
		"nextOrderId": "",
		"latitude": 29.5255,
		"longitude": -95.7565
	}
]
