[
	{
		"districtId": "882b43e6-2549-4cac-9809-93c6464f70fd",
		"warehouseId": "db5f8bdc-10e2-4655-9b11-17697f485033",
		"name": "Jonesboro District",
		"address": "7 Anthes Pass",
		"city": "Jonesboro",
		"state": "GA",
		"postalCode": "30238",
		"salesTax": 0.080,
		"yearToDateBalance": 0.00,
		"nextOrderId": "",
		"latitude": 33.4944,
		"longitude": -84.3797
	},
	{
		"districtId": "c9bade8a-a709-46c5-94ef-9f02a2103a03",
		"warehouseId": "db5f8bdc-10e2-4655-9b11-17697f485033",
		"name": "Riverdale District",
		"address": "212 Morningstar Terrace",
		"city": "Riverdale",
		"state": "GA",
		"postalCode": "30274",
		"salesTax": 0.080,
		"yearToDateBalance": 0.00,
		"nextOrderId": "",
		"latitude": 33.5667,
		"longitude": -84.4364
	},
	{
		"districtId": "c3d1ee72-4796-45e6-a9f5-57a30f78e616",
		"warehouseId": "db5f8bdc-10e2-4655-9b11-17697f485033",
		"name": "Stockbridge District",
		"address": "553 Nancy Center",
		"city": "Stockbridge",
		"state": "GA",
		"postalCode": "30281",
		"salesTax": 0.080,
		"yearToDateBalance": 0.00,
		"nextOrderId": "",
		"latitude": 33.5633,
		"longitude": -84.2165
	},
	{
		"districtId": "c1527d66-34e7-4b2a-83a3-38f1a0c76e12",
		"warehouseId": "db5f8bdc-10e2-4655-9b11-17697f485033",
		"name": "Morrow District",
		"address": "92465 Mesta Terrace",
		"city": "Morrow",
		"state": "GA",
		"postalCode": "30287",
		"salesTax": 0.070,
		"yearToDateBalance": 0.00,
		"nextOrderId": "",
		"latitude": 33.5007,
		"longitude": -84.3513
	},
	{
		"districtId": "e86e641d-89fc-4c18-905c-99cf915d3b31",
		"warehouseId": "db5f8bdc-10e2-4655-9b11-17697f485033",
		"name": "Union City District",
		"address": "46 Thompson Street",
		"city": "Union City",
		"state": "GA",
		"postalCode": "30291",
		"salesTax": 0.0725,
		"yearToDateBalance": 0.00,
		"nextOrderId": "",
		"latitude": 33.5832,
		"longitude":  -84.5499
	},
	{
		"districtId": "af08f55e-f7e2-4e6e-ba2e-b55e8d3bb3ed",
		"warehouseId": "db5f8bdc-10e2-4655-9b11-17697f485033",
		"name": "Rex District",
		"address": "71 Nelson Park",
		"city": "Rex",
		"state": "GA",
		"postalCode": "30273",
		"salesTax": 0.080,
		"yearToDateBalance": 0.00,
		"nextOrderId": "",
		"latitude": 33.5808,
		"longitude": -84.2782
	},
	{
		"districtId": "6ac914b1-af4f-45fe-8e35-683525ae8a08",
		"warehouseId": "db5f8bdc-10e2-4655-9b11-17697f485033",
		"name": "Morrow District",
		"address": "96 Basil Alley",
		"city": "Morrow",
		"state": "GA",
		"postalCode": "30260",
		"salesTax": 0.070,
		"yearToDateBalance": 0.00,
		"nextOrderId": "",
		"latitude": 33.5007,
		"longitude": -84.3513
	},
	{
		"districtId": "f32ff419-bbff-45cc-a41d-625c81a5935f",
		"warehouseId": "db5f8bdc-10e2-4655-9b11-17697f485033",
		"name": "Fairburn District",
		"address": "106 Crescent Oaks Road",
		"city": "Fairburn",
		"state": "GA",
		"postalCode": "30213",
		"salesTax": 0.0775,
		"yearToDateBalance": 0.00,
		"nextOrderId": "",
		"latitude": 33.5648,
		"longitude": -84.5809
	},
	{
		"districtId": "1fe06f65-1454-4585-bbd3-a08c272e899c",
		"warehouseId": "db5f8bdc-10e2-4655-9b11-17697f485033",
		"name": "Forest Park District",
		"address": "1841 Veith Street",
		"city": "Forest Park",
		"state": "GA",
		"postalCode": "30298",
		"salesTax": 0.10,
		"yearToDateBalance": 0.00,
		"nextOrderId": "",
		"latitude": 33.5007,
		"longitude":  -84.3513
	},
	{
		"districtId": "70ae2be9-8ac6-40ac-a6d6-50b77718af0c",
		"warehouseId": "db5f8bdc-10e2-4655-9b11-17697f485033",
		"name": "Red Oak District",
		"address": "1 North Center",
		"city": "Red Oak",
		"state": "GA",
		"postalCode": "30272",
		"salesTax": 0.060,
		"yearToDateBalance": 0.00,
		"nextOrderId": "",
		"latitude": 33.6259,
		"longitude": -84.5163
	}
]
